[
  { "name": "Arkansas", "type": "State", "lat": 34.7465, "lng": -92.2896, "slug": "arkansas" },
  { "name": "California", "type": "State", "lat": 36.7783, "lng": -119.4179, "slug": "california" },
  { "name": "Florida", "type": "State", "lat": 27.9944, "lng": -81.7603, "slug": "florida" },
  { "name": "Illinois", "type": "State", "lat": 40.0000, "lng": -89.0000, "slug": "illinois" },
  { "name": "Indiana", "type": "State", "lat": 39.7684, "lng": -86.1581, "slug": "indiana" },
  { "name": "Louisiana", "type": "State", "lat": 31.1695, "lng": -91.8678, "slug": "louisiana" },
  { "name": "Minnesota", "type": "State", "lat": 46.7296, "lng": -94.6859, "slug": "minnesota" },
  { "name": "Maryland", "type": "State", "lat": 39.0458, "lng": -76.6413, "slug": "maryland" },
  { "name": "Michigan", "type": "State", "lat": 44.3148, "lng": -85.6024, "slug": "michigan" },
  { "name": "New Jersey", "type": "State", "lat": 40.0583, "lng": -74.4057, "slug": "new-jersey" },
  { "name": "New York", "type": "State", "lat": 43.2994, "lng": -74.2179, "slug": "new-york" },
  { "name": "North Carolina", "type": "State", "lat": 35.7596, "lng": -79.0193, "slug": "north-carolina" },
  { "name": "Oklahoma", "type": "State", "lat": 35.0078, "lng": -97.0929, "slug": "oklahoma" },
  { "name": "Tennessee", "type": "State", "lat": 35.5175, "lng": -86.5804, "slug": "tennessee" },
  { "name": "Texas", "type": "State", "lat": 31.9686, "lng": -99.9018, "slug": "texas" },
  { "name": "Austin, TX", "type": "City", "lat": 30.2672, "lng": -97.7431, "slug": "austin", "stateSlug": "texas" },
  { "name": "Washington", "type": "State", "lat": 47.7511, "lng": -120.7401, "slug": "washington" },
  { "name": "Chicago, IL", "type": "City", "lat": 41.8781, "lng": -87.6298, "slug": "chicago", "stateSlug": "illinois" },
  { "name": "Houston, TX", "type": "City", "lat": 29.7604, "lng": -95.3698, "slug": "houston", "stateSlug": "texas" },
  { "name": "Baton Rouge, LA", "type": "City", "lat": 30.4515, "lng": -91.1871, "slug": "baton-rouge", "stateSlug": "louisiana" },
  { "name": "New York City, NY", "type": "City", "lat": 40.7128, "lng": -74.0060, "slug": "new-york-city", "stateSlug": "new-york" },
  { "name": "Harris County, TX", "type": "County", "lat": 29.9500, "lng": -95.5500, "slug": "harris-county", "stateSlug": "texas" },
  { "name": "Philadelphia, PA", "type": "City", "lat": 39.9526, "lng": -75.1652, "slug": "philadelphia", "stateSlug": "pennsylvania" },
  { "name": "Los Angeles, CA", "type": "City", "lat": 34.0522, "lng": -118.2437, "slug": "los-angeles", "stateSlug": "california" },
  { "name": "San Antonio, TX", "type": "City", "lat": 29.4241, "lng": -98.4936, "slug": "san-antonio", "stateSlug": "texas" },
  { "name": "San Francisco, CA", "type": "City", "lat": 37.7749, "lng": -122.4194, "slug": "san-francisco", "stateSlug": "california" },
  { "name": "Fort Worth, TX", "type": "City", "lat": 32.7254, "lng": -97.3208, "slug": "fort-worth", "stateSlug": "texas" },
  { "name": "Washington, DC", "type": "City", "lat": 38.9072, "lng": -77.0369, "slug": "washington-dc", "stateSlug": "district-of-columbia" },
  { "name": "Phoenix, AZ", "type": "City", "lat": 33.4484, "lng": -112.0740, "slug": "phoenix", "stateSlug": "arizona" },
  { "name": "Baltimore, MD", "type": "City", "lat": 39.2904, "lng": -76.6122, "slug": "baltimore", "stateSlug": "maryland" },
  { "name": "Charlotte, NC", "type": "City", "lat": 35.2271, "lng": -80.8431, "slug": "charlotte", "stateSlug": "north-carolina" },
  { "name": "Portland, OR", "type": "City", "lat": 45.5152, "lng": -122.6784, "slug": "portland", "stateSlug": "oregon" },
  { "name": "Denver, CO", "type": "City", "lat": 39.7392, "lng": -104.9903, "slug": "denver", "stateSlug": "colorado" },
  { "name": "Atlanta, GA", "type": "City", "lat": 33.7490, "lng": -84.3880, "slug": "atlanta", "stateSlug": "georgia" },
  { "name": "Dallas, TX", "type": "City", "lat": 32.7767, "lng": -96.7970, "slug": "dallas", "stateSlug": "texas" },
  { "name": "Columbus, OH", "type": "City", "lat": 39.9612, "lng": -82.9988, "slug": "columbus", "stateSlug": "ohio" },
  { "name": "El Paso, TX", "type": "City", "lat": 31.7619, "lng": -106.4850, "slug": "el-paso", "stateSlug": "texas" },
  { "name": "Kansas City, MO", "type": "City", "lat": 39.0997, "lng": -94.5786, "slug": "kansas-city", "stateSlug": "missouri" },
  { "name": "Long Beach, CA", "type": "City", "lat": 33.7701, "lng": -118.1937, "slug": "long-beach", "stateSlug": "california" },
  { "name": "Jacksonville/Duval Co, FL", "type": "City", "lat": 30.3322, "lng": -81.6557, "slug": "jacksonville", "stateSlug": "florida" },
  { "name": "Oklahoma City, OK", "type": "City", "lat": 35.4676, "lng": -97.5164, "slug": "oklahoma-city", "stateSlug": "oklahoma" },
  { "name": "Sugar Land, TX", "type": "City", "lat": 29.5984, "lng": -95.6225, "slug": "sugar-land", "stateSlug": "texas" },
  { "name": "Fort Bend County, TX", "type": "County", "lat": 29.5388, "lng": -95.7725, "slug": "fort-bend-county", "stateSlug": "texas" },
  { "name": "Montgomery County, TX", "type": "County", "lat": 30.3119, "lng": -95.4560, "slug": "montgomery-county", "stateSlug": "texas" },
  { "name": "Ohio State University", "type": "University", "lat": 40.0000, "lng": -83.0125, "slug": "ohio-state-university", "stateSlug": "ohio" },
  { "name": "Alabama", "type": "State", "lat": 32.3182, "lng": -86.9023, "slug": "alabama" },
  { "name": "Mississippi", "type": "State", "lat": 32.3547, "lng": -89.3985, "slug": "mississippi" }
]